City,Lat,Lng,Max Temp (F),Humidity (%),Cloudiness (%),Wind Speed (MPH),Country,Date
Rikitea,-23.1203,-134.9692,77.23,73,96,12.59,PF,1612728440
Tuktoyaktuk,69.4541,-133.0374,-25.6,75,75,13.8,CA,1612728622
Georgiyevka,43.0369,74.7114,39.2,81,100,4.47,KZ,1612728622
Saint-Joseph,-21.3667,55.6167,80.6,74,90,4.61,RE,1612728137
Hobyo,5.3505,48.5268,78.1,78,0,17.29,SO,1612728370
Presidencia Roque Sáenz Peña,-26.7852,-60.4388,94.8,17,0,8.19,AR,1612728623
Lorengau,-2.0226,147.2712,81.9,78,100,6.76,PG,1612728118
Ushuaia,-54.8,-68.3,60.8,55,40,8.05,AR,1612728623
Bluff,-46.6,168.3333,56.21,79,96,5.21,NZ,1612728623
Vaini,-21.2,-175.2,78.8,89,75,12.66,TO,1612728623
Arraial do Cabo,-22.9661,-42.0278,73.4,88,75,3.44,BR,1612727958
Aleksandrov Gay,50.147,48.5704,3.87,88,97,15.01,RU,1612728163
Mataura,-46.1927,168.8643,58.8,66,97,1.95,NZ,1612728624
Hobart,-42.8794,147.3294,55.4,62,40,13.8,AU,1612728356
Puerto Ayora,-0.7393,-90.3518,86.0,66,40,20.71,EC,1612728625
Thompson,55.7435,-97.8558,-27.4,62,75,13.8,CA,1612728145
Carnarvon,-24.8667,113.6333,77.0,100,40,12.66,AU,1612728049
Provideniya,64.3833,-173.3,-4.52,80,66,16.64,RU,1612728626
Naze,28.3667,129.4833,57.58,65,0,9.33,JP,1612728048
Ketchikan,55.3422,-131.6461,30.2,64,1,13.8,US,1612728626
Shelburne,44.0787,-80.2041,19.0,74,96,14.58,CA,1612728627
Buala,-8.145,159.5921,80.31,81,39,5.3,SB,1612728150
Hermanus,-34.4187,19.2345,66.0,78,7,6.26,ZA,1612728627
Saint-Philippe,-21.3585,55.7679,80.6,74,90,4.61,RE,1612728078
Iwaki,37.05,140.8833,35.01,63,0,1.01,JP,1612728628
Bandarbeyla,9.4942,50.8122,75.74,79,22,18.66,SO,1612728085
Port Alfred,-33.5906,26.891,66.99,95,98,6.89,ZA,1612728628
Constitución,-35.3333,-72.4167,66.76,69,3,8.52,CL,1612728079
Barrow,71.2906,-156.7887,-23.8,76,1,11.5,US,1612728629
Albany,42.6001,-73.9662,30.0,72,100,2.55,US,1612728407
Seymchan,62.8833,152.4333,-8.75,85,100,17.56,RU,1612728629
Bongandanga,1.5,21.05,74.95,43,81,1.7,CD,1612728629
Bindi,9.9167,-11.45,81.32,18,80,5.77,SL,1612728630
Buritizeiro,-17.3511,-44.9622,72.82,89,100,8.19,BR,1612728630
Khatanga,71.9667,102.5,-30.68,79,0,10.16,RU,1612728630
Ancud,-41.8697,-73.8203,82.4,30,0,5.75,CL,1612728631
Charlestown,-32.95,151.6667,71.01,84,35,9.89,AU,1612728355
Hamilton,39.1834,-84.5333,24.01,33,75,4.61,US,1612728335
Avarua,-21.2078,-159.775,84.2,79,20,13.8,CK,1612728631
Punta Arenas,-53.15,-70.9167,71.6,23,0,13.8,CL,1612728463
Ballina,-28.8667,153.5667,75.2,78,75,12.66,AU,1612728163
Abu Dhabi,24.4667,54.3667,69.8,78,0,5.75,AE,1612728509
Busselton,-33.65,115.3333,62.01,99,94,1.99,AU,1612728633
Jacmel,18.2342,-72.5347,91.4,38,20,19.57,HT,1612728633
Auki,-8.7676,160.7034,79.05,83,94,5.77,SB,1612728633
Kruisfontein,-34.0033,24.7314,64.99,90,96,1.01,ZA,1612728146
Tiksi,71.6872,128.8694,-28.07,86,39,3.76,RU,1612728633
Jamestown,42.097,-79.2353,18.0,67,90,18.41,US,1612728634
Iztapa,13.9333,-90.7075,91.4,49,1,11.5,GT,1612728466
Tuy Hoa,13.0833,109.3,71.13,89,100,5.17,VN,1612728634
East London,-33.0153,27.9116,72.52,78,100,6.85,ZA,1612728051
Pudem,58.3044,52.1675,-15.47,87,100,10.58,RU,1612728635
Atchison,39.563,-95.1216,7.0,72,90,10.36,US,1612728636
Tambopata,-12.7333,-69.1833,87.8,62,40,5.75,PE,1612728636
Bonga,7.2833,36.2333,63.59,52,24,1.16,ET,1612728636
Minot,48.2325,-101.2963,-7.6,59,90,8.05,US,1612728636
Qaanaaq,77.484,-69.3632,12.27,86,61,5.99,GL,1612728043
Bambous Virieux,-20.3428,57.7575,81.0,78,75,9.22,MU,1612728637
Hilo,19.7297,-155.09,78.8,53,1,4.61,US,1612728637
Jutaí,-5.1833,-68.9,84.79,76,100,2.35,BR,1612728638
Yellowknife,62.456,-114.3525,-36.0,67,1,5.93,CA,1612728587
College,64.8569,-147.8028,-14.01,75,20,4.61,US,1612728638
Clifton,40.8584,-74.1638,33.01,93,90,8.05,US,1612728475
Vanimo,-2.6741,141.3028,77.11,86,100,2.98,PG,1612728639
Grand Island,40.925,-98.342,5.0,78,90,16.11,US,1612728639
La Macarena,2.1837,-73.7849,89.35,53,99,4.5,CO,1612728639
Kloulklubed,7.0419,134.2556,77.0,100,90,8.05,PW,1612728640
Xianyang,34.3378,108.7026,42.01,51,0,8.95,CN,1612728640
Kapaa,22.0752,-159.319,71.6,56,1,2.01,US,1612728640
Alofi,-19.0595,-169.9187,82.4,83,40,10.36,NU,1612728640
Sittwe,20.15,92.9,69.91,54,0,18.01,MM,1612728640
Hithadhoo,-0.6,73.0833,82.06,70,91,8.14,MV,1612728641
Bellavista,-7.0561,-76.5911,91.4,55,40,8.05,PE,1612728641
Castro,-24.7911,-50.0119,75.11,54,0,3.2,BR,1612728641
Camacupa,-12.0167,17.4833,64.49,93,99,3.71,AO,1612728642
Sioux Lookout,50.1001,-91.917,-14.8,53,20,11.5,CA,1612728131
Khovd,48.0056,91.6419,14.25,85,100,0.56,MN,1612728150
Portland,45.5234,-122.6762,48.0,66,90,3.44,US,1612728051
Saint-Pierre,-21.3393,55.4781,80.6,74,90,4.61,RE,1612728090
Evensk,61.95,159.2333,17.8,85,100,34.94,RU,1612728142
Dunedin,-45.8742,170.5036,60.01,89,94,3.0,NZ,1612728160
Tuatapere,-46.1333,167.6833,59.54,69,100,6.06,NZ,1612728644
Talcahuano,-36.7167,-73.1167,64.4,72,90,8.05,CL,1612728644
Payakumbuh,-0.2202,100.6308,69.55,87,99,1.48,ID,1612728644
Chui,-33.6971,-53.4616,73.09,67,20,10.67,UY,1612728645
Yar-Sale,66.8333,70.8333,-10.61,90,100,24.14,RU,1612728645
Kununurra,-15.7667,128.7333,78.8,100,90,6.4,AU,1612728645
Longyearbyen,78.2186,15.6401,14.0,67,75,16.11,SJ,1612728067
La Ronge,55.1001,-105.2842,-27.4,51,60,5.75,CA,1612728646
Cape Town,-33.9258,18.4232,68.0,63,0,18.41,ZA,1612728646
Geraldton,-28.7667,114.6,68.0,88,75,17.27,AU,1612728646
San Felipe,10.3399,-68.7425,82.62,62,91,8.1,VE,1612728647
Manggar,-2.8833,108.2667,79.54,82,100,13.04,ID,1612728050
Kirakira,-10.4544,161.9205,79.74,78,37,5.1,SB,1612728647
Tommot,58.9564,126.2925,-25.11,80,0,0.81,RU,1612728647
Stříbro,49.7529,13.0041,24.8,100,90,6.91,CZ,1612728354
Guiyang,26.5833,106.7167,46.4,100,90,2.24,CN,1612728648
Faanui,-16.4833,-151.75,80.98,76,2,11.77,PF,1612728648
Saint Paul Harbor,57.79,-152.4072,26.6,74,1,4.61,US,1612728648
Forsytheganj,52.6333,29.7333,5.95,92,100,4.41,BY,1612728108
Mandera,3.9366,41.867,86.13,31,13,12.19,KE,1612728649
Cairns,-16.9167,145.7667,80.01,100,40,3.44,AU,1612728400
Half Moon Bay,37.4636,-122.4286,63.0,72,1,10.36,US,1612728649
George Town,5.4112,100.3354,80.6,78,20,4.61,MY,1612728649
Nizhniy Tsasuchey,50.5167,115.1333,-4.79,90,52,5.91,RU,1612728649
Nariño,5.6089,-75.1766,75.2,50,20,9.22,CO,1612728650
Codrington,-38.2667,141.9667,56.55,71,100,10.27,AU,1612728650
Okhotsk,59.3833,143.3,12.63,88,100,21.59,RU,1612728078
Port Elizabeth,-33.918,25.5701,66.2,94,90,6.91,ZA,1612728651
Naryan-Mar,67.6713,53.087,-16.96,87,100,16.44,RU,1612728651
Rawson,-43.3002,-65.1023,61.41,47,16,12.08,AR,1612728652
Kota Belud,6.351,116.4305,77.0,94,20,2.3,MY,1612728652
Bathsheba,13.2167,-59.5167,82.4,57,75,24.16,BB,1612728083
San Jerónimo,-11.9472,-75.2829,62.94,52,100,4.65,PE,1612728653
Kindu,-2.95,25.95,74.59,76,97,1.77,CD,1612728654
Hong Kong,22.2855,114.1577,68.0,84,0,12.3,HK,1612728654
Touros,-5.1989,-35.4608,87.8,62,40,17.27,BR,1612728138
Pacific Grove,36.6177,-121.9166,60.01,71,1,6.91,US,1612728597
Cherskiy,68.75,161.3,-4.02,69,12,0.96,RU,1612728655
Juneau,58.3019,-134.4197,16.0,92,75,5.03,US,1612727982
Arman',59.7,150.1667,11.77,84,100,17.96,RU,1612728655
Atuona,-9.8,-139.0333,79.36,74,24,21.79,PF,1612728656
Bethel,41.3712,-73.414,28.99,93,90,4.61,US,1612728656
Mandalgovi,45.7625,106.2708,12.76,81,0,9.51,MN,1612728130
San Miguel,13.4833,-88.1833,95.0,36,0,3.44,SV,1612728656
New Norfolk,-42.7826,147.0587,53.01,66,10,1.99,AU,1612728657
Ribeira Grande,38.5167,-28.7,59.0,77,40,12.66,PT,1612728657
Kinshasa,-4.3246,15.3215,73.4,88,20,9.22,CD,1612728569
Bredasdorp,-34.5322,20.0403,64.4,68,3,5.75,ZA,1612728657
Sukhaya Buyvola,45.1533,42.9956,19.4,86,90,2.24,RU,1612728657
Bad Doberan,54.1071,11.9005,28.0,63,90,25.32,DE,1612728658
Kilindoni,-7.9139,39.6668,82.53,80,100,13.49,TZ,1612728096
Saint George,37.1041,-113.5841,60.01,25,1,4.61,US,1612728658
Mandalī,33.7499,45.5541,58.95,70,0,5.44,IQ,1612728659
Eureka,40.8021,-124.1637,53.01,74,0,3.0,US,1612728522
Tamale,9.4008,-0.8393,90.18,18,18,5.59,GH,1612728659
Pevek,69.7008,170.3133,-5.98,86,0,3.18,RU,1612728659
Mórrope,-6.5417,-80.0111,91.99,54,0,18.41,PE,1612728659
Wainwright,52.839,-110.8572,-18.4,76,68,1.14,CA,1612728660
Husavik,66.0449,-17.3389,32.0,80,90,2.3,IS,1612728660
Verkhnevilyuysk,63.4453,120.3167,-11.58,87,100,9.37,RU,1612728660
Umm Kaddadah,13.6017,26.6876,65.68,25,0,13.6,SD,1612728661
Taoudenni,22.6783,-3.9836,64.33,27,0,9.28,ML,1612728661
Azare,11.6765,10.1948,74.46,19,15,8.68,NG,1612728661
Viranşehir,37.2353,39.7631,50.7,56,100,2.24,TR,1612728662
Mahébourg,-20.4081,57.7,80.6,78,75,9.22,MU,1612728662
Gulbarga,17.3333,76.8333,66.6,34,68,9.75,IN,1612728663
Otjimbingwe,-22.35,16.1333,80.62,33,0,7.43,NA,1612728663
Zalegoshch',52.9008,36.8869,-2.52,92,62,9.55,RU,1612728663
Nikolskoye,59.7035,30.7861,17.6,86,90,11.18,RU,1612728664
Port-Gentil,-0.7193,8.7815,78.8,94,40,2.3,GA,1612728664
Nome,64.5011,-165.4064,-7.01,84,1,5.57,US,1612728664
Huruta,8.15,39.35,57.11,74,5,5.21,ET,1612728664
Upernavik,72.7868,-56.1549,18.48,79,3,3.33,GL,1612728665
Piqua,40.1448,-84.2424,14.0,59,18,4.0,US,1612728665
Talnakh,69.4865,88.3972,-21.21,74,7,3.11,RU,1612728437
Narsaq,60.9167,-46.05,37.4,28,65,49.48,GL,1612728133
Wairoa,-39.0333,177.3667,62.01,83,29,3.0,NZ,1612728666
Jiaocheng,24.6774,116.1389,57.4,73,0,1.52,CN,1612728666
Pahrump,36.2083,-115.9839,61.0,22,0,3.0,US,1612728666
Houma,29.5958,-90.7195,62.01,58,1,8.05,US,1612728600
Morón,-34.6534,-58.6198,90.0,30,0,5.99,AR,1612728667
Aswān,24.0934,32.907,64.47,44,0,13.09,EG,1612728659
Timrå,62.487,17.3257,21.2,86,90,10.36,SE,1612728667
Darnah,32.767,22.6367,66.27,40,100,23.06,LY,1612728667
Clyde River,70.4692,-68.5914,-2.2,84,75,4.61,CA,1612728667
Tasiilaq,65.6145,-37.6368,24.8,54,0,16.11,GL,1612728668
Onega,63.9061,38.1404,-7.58,91,100,2.93,RU,1612728668
Mersin Province,36.862,34.6509,57.2,88,75,0.89,TR,1612728668
Mangai,-4.05,19.5333,72.66,87,82,0.65,CD,1612728668
Vestmanna,62.1564,-7.1664,33.8,86,75,13.8,FO,1612728669
Kumul,42.8,93.45,32.14,76,54,5.64,CN,1612728669
Luohe,33.5717,114.0353,37.99,72,100,8.1,CN,1612728669
Nioki,-2.7167,17.6833,75.31,85,100,1.16,CD,1612728670
Egvekinot,66.3167,-179.1667,-10.25,81,0,15.28,RU,1612728670
Byron Bay,-28.65,153.6167,75.2,78,75,12.66,AU,1612728670
Klaksvík,62.2266,-6.589,33.8,86,75,13.8,FO,1612728671
Hastings,50.8552,0.5729,30.0,87,98,5.01,GB,1612728671
Opotiki,-38.0833,177.2833,63.0,82,48,5.01,NZ,1612728671
Shenkursk,62.1091,42.896,-17.39,87,99,7.31,RU,1612728672
Dikson,73.5069,80.5464,-32.01,85,90,14.45,RU,1612728672
Sawtell,-30.3833,153.1,69.8,83,40,12.66,AU,1612728673
Cidreira,-30.1811,-50.2056,75.25,62,0,10.0,BR,1612728076
Port Blair,11.6667,92.75,78.03,81,1,10.0,IN,1612728673
Jaynagar-Majilpur,22.1758,88.4178,62.6,72,0,4.61,IN,1612728674
Bocaiúva,-17.1078,-43.815,70.81,89,100,8.57,BR,1612728663
Copiapó,-27.3667,-70.3333,69.8,56,0,11.5,CL,1612728674
Vidim,56.4088,103.1106,15.64,94,100,7.38,RU,1612728675
Northam,51.0333,-4.2167,36.0,71,33,15.01,GB,1612728675
Zhigansk,66.7697,123.3711,-33.23,79,6,7.92,RU,1612728133
Vila Franca do Campo,37.7167,-25.4333,57.99,88,75,12.66,PT,1612728675
Kidal,18.4411,1.4078,73.94,20,100,8.77,ML,1612728676
Los Llanos de Aridane,28.6585,-17.9182,64.4,68,20,9.22,ES,1612728096
Te Anau,-45.4167,167.7167,58.55,73,100,3.85,NZ,1612728676
Marsh Harbour,26.5412,-77.0636,77.92,79,1,16.87,BS,1612728677
Agirish,61.9247,63.0231,-15.39,89,100,10.04,RU,1612728677
Mahibadhoo,3.7833,72.9667,81.5,75,0,11.86,MV,1612728086
Kvitok,56.0724,98.4813,22.08,93,6,5.44,RU,1612728677
São José da Coroa Grande,-8.8978,-35.1478,81.12,75,59,12.06,BR,1612728677
Sibolga,1.7427,98.7792,76.57,80,100,4.25,ID,1612728678
Butaritari,3.0707,172.7902,81.1,80,94,20.29,KI,1612728678
Salinópolis,-0.6136,-47.3561,80.8,83,100,9.51,BR,1612728099
Vardø,70.3705,31.1107,23.0,93,75,28.77,NO,1612728104
Tingo María,-9.2895,-76.0088,87.13,48,99,2.98,PE,1612728679
Palmer,42.1584,-72.3287,28.0,93,90,6.91,US,1612728679
Paamiut,61.994,-49.6678,29.12,85,50,8.16,GL,1612728093
Kavieng,-2.5744,150.7967,82.94,75,68,8.19,PG,1612728111
Broome,42.2506,-75.833,28.0,74,90,9.22,US,1612728680
Maceió,-9.6658,-35.7353,80.6,78,0,12.66,BR,1612728681
Raudeberg,61.9875,5.1352,25.0,56,0,5.17,NO,1612728106
Bundibugyo,0.7414,30.0417,72.52,33,63,3.04,UG,1612728681
Tolbazy,54.0241,55.8825,-5.01,77,90,13.42,RU,1612728682
Kaitangata,-46.2817,169.8464,63.0,88,100,1.01,NZ,1612728682
Akonolinga,3.7667,12.25,76.05,55,87,3.96,CM,1612728104
Akdepe,42.0551,59.3788,46.4,81,0,9.22,TM,1612728682
Chelno-Vershiny,54.4333,51.1,-7.04,90,100,12.28,RU,1612728683
Port Moresby,-9.4431,147.1797,77.0,94,40,9.22,PG,1612728452
Norman Wells,65.282,-126.8329,-23.8,76,75,3.09,CA,1612728683
Itaituba,-4.2761,-55.9836,90.61,51,92,2.08,BR,1612728683
Puerto Palomas,31.7667,-107.6167,66.2,9,1,18.41,MX,1612728683
Moyale,3.5167,39.0584,81.7,33,100,10.92,KE,1612728684
Isla Mujeres,21.2311,-86.731,84.2,70,75,12.66,MX,1612728684
Airai,-8.9266,125.4092,60.62,100,100,2.68,TL,1612728684
Nouadhibou,20.931,-17.0347,66.2,68,0,19.57,MR,1612728684
Maraã,-1.8333,-65.3667,90.48,55,99,3.78,BR,1612728685
Fortuna,40.5982,-124.1573,54.0,87,1,4.61,US,1612728538
Kahului,20.8947,-156.47,72.0,60,20,4.16,US,1612728061
Beringovskiy,63.05,179.3167,-0.58,88,100,14.03,RU,1612728150
Vanderhoof,54.0166,-124.0198,1.18,88,97,1.99,CA,1612728686
Severo-Kuril'sk,50.6789,156.125,18.32,89,95,11.97,RU,1612728686
Alyangula,-13.8483,136.4192,80.6,89,75,9.22,AU,1612728686
Erzin,36.9559,36.2,57.2,77,40,11.5,TR,1612728687
Berlevåg,70.8578,29.0864,24.8,74,75,31.07,NO,1612728687
Sambava,-14.2667,50.1667,77.97,84,100,1.7,MG,1612728687
Laas,46.6166,10.7002,39.2,100,90,2.8,IT,1612728125
Aberdeen,57.1437,-2.0981,33.8,69,75,12.66,GB,1612728447
Atherton,53.5237,-2.4935,37.0,53,100,4.0,GB,1612728450
Luwuk,-0.9516,122.7875,78.44,74,100,2.17,ID,1612728689
Condega,13.365,-86.3985,78.8,57,20,9.93,NI,1612728689
Bengkulu,-3.8004,102.2655,75.51,85,100,6.85,ID,1612728689
Cabo San Lucas,22.8909,-109.9124,75.99,60,20,5.75,MX,1612728605
Pampierstad,-27.7832,24.6877,76.44,51,26,12.66,ZA,1612728690
Mayo,38.8876,-76.5119,39.99,100,90,4.61,US,1612728690
Petropavlovsk-Kamchatskiy,53.0452,158.6483,21.2,79,100,6.71,RU,1612728670
Lüderitz,-26.6481,15.1594,70.72,59,0,29.04,NA,1612728690
Saskylakh,71.9167,114.0833,-37.61,78,28,13.24,RU,1612728691
Dubna,56.7333,37.1667,-1.57,92,100,5.01,RU,1612728684
Lima,-12.0432,-77.0282,78.8,69,75,10.36,PE,1612727870
Chiredzi,-21.05,31.6667,74.16,65,78,3.49,ZW,1612728692
Port Lincoln,-34.7333,135.8667,59.36,79,73,15.39,AU,1612728098
Elk City,35.412,-99.4043,33.8,100,90,8.05,US,1612728692
Sisimiut,66.9395,-53.6735,24.93,80,0,16.22,GL,1612728692
Ponta do Sol,32.6667,-17.1,57.99,69,48,5.99,PT,1612728692
Kasungu,-13.0333,33.4833,66.76,94,100,4.29,MW,1612728693
Roseburg,43.2165,-123.3417,46.99,76,90,2.93,US,1612728693
Lae,-6.7221,146.9847,78.57,76,97,4.03,PG,1612728693
Tura,25.5198,90.2201,57.47,48,0,3.04,IN,1612728694
Sitka,57.0531,-135.33,33.8,47,1,5.75,US,1612728694
Kichera,55.9375,110.0997,10.53,91,100,2.57,RU,1612728694
Ryde,50.73,-1.1621,36.0,78,98,3.0,GB,1612728694
Port Hedland,-20.3167,118.5667,77.0,78,45,8.05,AU,1612728096
Manyoni,-5.7467,34.8382,66.42,93,100,3.27,TZ,1612728695
Port Macquarie,-31.4333,152.9167,66.99,96,100,1.01,AU,1612728695
Winslow,35.0242,-110.6974,61.0,11,1,10.36,US,1612728695
Amapá,1.0,-52.0,78.69,94,100,2.82,BR,1612728696
Santa Cruz de la Sierra,-17.8,-63.1667,93.2,46,40,11.5,BO,1612728696
Ambon City,-3.6954,128.1814,81.23,79,98,4.65,ID,1612728696
São João da Barra,-21.6403,-41.0511,71.6,100,90,8.55,BR,1612728696
Fort Nelson,58.8053,-122.7002,-14.8,76,75,8.05,CA,1612728697
Lebu,-37.6167,-73.65,63.18,76,6,7.74,CL,1612728697
Okahandja,-21.9833,16.9167,79.0,33,4,8.05,NA,1612728697
Esperance,-33.8667,121.9,62.6,88,75,11.5,AU,1612728698
Strandby,57.4915,10.4961,26.6,68,75,17.27,DK,1612728698
Olafsvik,64.8945,-23.7142,33.96,84,12,15.73,IS,1612728698
Zaysan,47.4667,84.8667,24.57,89,98,1.61,KZ,1612728699
Colquiri,-17.4167,-67.1333,66.2,39,75,10.36,BO,1612728699
Bijie,27.3125,105.2942,43.34,73,100,9.98,CN,1612728699
Usinsk,65.9939,57.5281,-20.6,86,100,16.24,RU,1612728700
Camabatela,-8.1881,15.375,64.49,100,100,3.27,AO,1612728670
Borås,57.721,12.9401,19.0,92,0,8.05,SE,1612728700
Harper,4.375,-7.7169,79.56,86,98,6.04,LR,1612728550
Lata,40.1629,-8.3327,55.99,99,100,11.99,PT,1612728701
Caravelas,-17.7125,-39.2481,78.62,86,100,10.04,BR,1612728701
Lensk,60.7253,114.9278,8.44,93,100,3.53,RU,1612728701
Galle,6.0367,80.217,76.95,84,6,2.04,LK,1612728702
Carballo,43.213,-8.691,50.0,96,100,1.99,ES,1612728702
El Salvador,13.8333,-88.9167,89.6,55,20,9.22,SV,1612728702
Andenes,69.3143,16.1194,32.0,64,87,21.85,NO,1612728111
Lavrentiya,65.5833,-171.0,-11.06,85,0,6.71,RU,1612728702
Piranshahr,36.701,45.1413,37.56,77,11,4.41,IR,1612728703
Nanortalik,60.1432,-45.2371,28.78,89,87,9.22,GL,1612728703
Faya,18.3851,42.4509,57.2,41,0,3.44,SA,1612728703
Sola,-13.8833,167.55,81.14,76,100,9.31,VU,1612728703
Smithers,54.7804,-127.1743,10.4,85,75,2.3,CA,1612728703
General Pico,-35.6566,-63.7568,98.94,11,0,7.23,AR,1612728704
Esim,4.8699,-2.2405,80.46,86,100,10.18,GH,1612728704
Preobrazheniye,42.9019,133.9064,4.39,84,0,10.74,RU,1612728149
Launceston,-41.45,147.1667,53.01,66,90,8.05,AU,1612728704
Landeck,47.1301,10.5636,36.0,100,90,6.06,AT,1612728705
Abapó,-18.8333,-63.4667,87.67,38,100,8.14,BO,1612728705
Salalah,17.0151,54.0924,73.4,68,75,3.44,OM,1612728705
Mount Gambier,-37.8333,140.7667,55.4,71,90,6.91,AU,1612727964
Maun,-19.9833,23.4167,71.6,100,40,5.75,BW,1612728706
Mar del Plata,-38.0023,-57.5575,61.0,94,90,9.22,AR,1612728422
Marfino,55.7028,37.3822,10.0,78,75,8.95,RU,1612728706
Isoka,-10.1606,32.6335,65.73,94,100,3.96,ZM,1612728707
Canutama,-6.5339,-64.3831,90.64,55,43,3.29,BR,1612728707
Gordeyevka,52.9569,31.9703,-0.56,91,1,5.57,RU,1612728708
Sinnamary,5.3833,-52.95,78.6,85,100,14.34,GF,1612728136
Mount Isa,-20.7333,139.5,77.0,100,99,5.75,AU,1612728708
Mt. Pleasant,32.7941,-79.8626,48.2,76,90,14.97,US,1612728708
Chokurdakh,70.6333,147.9167,-19.79,87,96,8.03,RU,1612728709
Korla,41.7597,86.1469,34.3,69,87,8.66,CN,1612728130
Colac,-38.3333,143.5833,54.0,87,98,5.01,AU,1612728521
Penzance,50.1186,-5.5371,37.4,65,75,18.41,GB,1612728709
Rajanpur,29.1035,70.325,63.23,26,0,7.94,PK,1612728710
Ca Mau,9.1769,105.15,73.58,87,0,3.11,VN,1612728710
Amga,60.8953,131.9608,-34.69,81,8,0.54,RU,1612728710
Jiayuguan City,39.8167,98.3,26.92,72,100,2.64,CN,1612728710
Altay,47.8667,88.1167,23.09,81,100,3.58,CN,1612728711
Baykit,61.67,96.37,25.21,95,99,6.64,RU,1612728711
Vostok,46.4856,135.8833,-15.25,90,100,2.98,RU,1612728711
Pangnirtung,66.1451,-65.7125,32.0,43,20,3.44,CA,1612728149
Nokaneng,-19.6667,22.2667,70.56,90,100,10.78,BW,1612728711
Saldanha,-33.0117,17.9442,64.4,68,0,14.97,ZA,1612728712
Columbus,39.9612,-82.9988,19.99,58,20,8.05,US,1612728572
Seddon,-37.8068,144.8916,60.01,63,90,9.22,AU,1612728712
Necochea,-38.5473,-58.7368,57.99,91,100,16.73,AR,1612728134
Troitskoye,52.9821,84.6757,22.8,96,100,7.47,RU,1612728712
Acapulco de Juárez,16.8634,-99.8901,86.0,62,20,9.22,MX,1612728434
Arandis,-22.4167,14.9667,64.99,87,2,5.01,NA,1612728713
Pedasí,7.5333,-80.0333,82.96,73,31,10.85,PA,1612728713
Kalmunai,7.4167,81.8167,76.8,88,23,10.71,LK,1612728714
Ures,29.4333,-110.4,80.01,21,0,3.0,MX,1612728714
Cravo Norte,6.3017,-70.2041,95.86,33,99,9.6,CO,1612728714
Tazovsky,67.4667,78.7,-11.85,90,100,19.17,RU,1612728116
Souillac,-20.5167,57.5167,80.6,78,75,9.22,MU,1612728715
Pushkinskiye Gory,57.0209,28.9103,5.04,96,100,4.09,RU,1612728715
Dingle,10.9995,122.6711,75.49,92,100,8.9,PH,1612728715
Salto,-31.3833,-57.9667,88.0,55,0,5.75,UY,1612728716
Eyl,7.9803,49.8164,75.51,79,0,18.77,SO,1612728716
Kommunarka,55.5695,37.4893,10.0,85,75,6.71,RU,1612728716
Rewa,24.5333,81.3,52.39,47,0,0.6,IN,1612728717
Östersund,63.1792,14.6357,15.8,86,90,9.22,SE,1612728717
Morro Bay,35.3658,-120.8499,75.2,20,1,5.75,US,1612728717
Kortkeros,61.8106,51.5806,-16.6,69,90,8.95,RU,1612728717
Nyuksenitsa,60.4128,44.2397,-17.88,87,100,8.1,RU,1612728718
Pinawa,50.1489,-95.8811,-19.12,84,81,9.15,CA,1612728718
Santa Isabel Rio Negro,-0.4139,-65.0192,86.13,74,82,3.11,BR,1612728718
Tongchuanshi,35.0806,109.0897,38.26,64,0,3.15,CN,1612728719
Ugoofaaru,5.6667,73.0,81.36,74,17,9.4,MV,1612728719
Beyneu,45.3167,55.2,27.77,87,87,15.17,KZ,1612728719
Sørland,67.667,12.6934,33.8,86,40,21.85,NO,1612728719
Yashkul',46.1711,45.3435,25.29,78,95,9.75,RU,1612728720
Odienné,9.51,-7.5692,84.42,25,0,3.6,CI,1612728720
Oranjemund,-28.55,16.4333,63.55,80,0,23.6,NA,1612728721
Gannan,47.9147,123.5031,-7.44,83,0,5.88,CN,1612728721
Gibara,21.1097,-76.1317,89.6,45,40,6.91,CU,1612728721
Skeldon,5.8833,-57.1333,81.12,76,100,10.98,GY,1612728721
Shubarshi,48.5872,57.1869,7.57,94,93,11.99,KZ,1612728722
Shingū,33.7333,135.9833,42.49,75,0,7.45,JP,1612728722
Isangel,-19.55,169.2667,77.0,94,20,5.75,VU,1612728722
Brest,52.1,23.7,11.52,93,100,15.03,BY,1612728722
Rabo de Peixe,37.8,-25.5833,57.99,88,75,12.66,PT,1612728723
Sayyan,15.1718,44.3244,48.51,51,0,6.26,YE,1612728723
Kaka,37.3482,59.6143,54.46,55,44,3.76,TM,1612728723
Puerto El Triunfo,13.2833,-88.55,95.0,36,0,3.44,SV,1612728723
Fort Smith,35.3859,-94.3986,41.0,75,90,9.22,US,1612728724
Kavaratti,10.5669,72.642,80.78,69,26,7.2,IN,1612728144
Thinadhoo,0.5333,72.9333,81.84,73,48,9.06,MV,1612728724
Vila Velha,-20.3297,-40.2925,71.6,94,90,11.5,BR,1612728725
Pitimbu,-7.4706,-34.8086,84.2,70,40,11.5,BR,1612728130
Dawei,14.0833,98.2,70.81,69,0,2.86,MM,1612728725
Pochutla,15.7432,-96.4661,86.0,65,75,9.22,MX,1612728146
Ranong,9.9658,98.6348,74.41,88,19,3.33,TH,1612728726
Wittenberge,53.0,11.75,25.0,65,100,8.99,DE,1612728727
Álamos,27.0167,-108.9333,80.89,18,0,6.58,MX,1612728727
San Patricio,28.017,-97.5169,75.2,35,1,14.97,US,1612728728
Fairbanks,64.8378,-147.7164,-14.01,76,1,2.68,US,1612728632
Dwārka,22.2394,68.9678,69.37,51,0,11.86,IN,1612728483
Konstanz,47.6603,9.1758,37.99,94,100,8.57,DE,1612728729
Iqaluit,63.7506,-68.5145,26.6,68,75,20.71,CA,1612728134
Grindavik,63.8424,-22.4338,33.8,64,0,16.11,IS,1612728729
Inírida,3.8653,-67.9239,82.78,84,100,0.2,CO,1612728730
Leningradskiy,69.3833,178.4167,-14.31,81,0,6.6,RU,1612728730
Tigil',57.8,158.6667,26.1,94,0,17.49,RU,1612728730
Bodden Town,19.2833,-81.25,84.99,65,20,11.5,KY,1612728730
Barcelona,41.3888,2.159,51.01,76,20,2.3,ES,1612728522
Kulu,39.0951,33.0799,51.19,49,87,8.34,TR,1612728731
Redmond,47.674,-122.1215,46.99,75,99,5.84,US,1612728692
Linfen,36.0889,111.5189,38.3,69,0,2.66,CN,1612728731
Glenwood Springs,39.5505,-107.3248,48.2,58,1,21.85,US,1612728634
Sarangani,5.4033,125.4636,81.45,79,100,9.66,PH,1612728732
Padang,-0.9492,100.3543,77.0,88,20,3.44,ID,1612728732
Atbasar,51.8,68.3333,10.36,95,100,7.27,KZ,1612728732
Rocha,-34.4833,-54.3333,73.2,71,100,12.33,UY,1612728166
Mayskiy,47.6931,40.1025,15.8,67,0,4.47,RU,1612728733
Christchurch,-43.5333,172.6333,69.01,88,15,8.05,NZ,1612728472
Namatanai,-3.6667,152.4333,80.08,80,100,3.71,PG,1612728735
Xaçmaz,41.4635,48.806,39.24,84,100,8.52,AZ,1612728735
Katobu,-4.9408,122.5276,75.49,93,88,0.69,ID,1612728736
Gamba,-2.65,10.0,79.21,86,100,5.26,GA,1612728144
Sulangan,11.1373,123.7228,80.64,81,100,17.25,PH,1612728736
Saint-Augustin,51.226,-58.6502,26.65,92,25,17.16,CA,1612728737
Zheleznodorozhnyy,55.7503,38.0042,10.4,72,40,13.42,RU,1612728737
That Phanom,16.9364,104.7104,68.5,79,29,7.56,TH,1612728738
Kemijärvi,66.7131,27.4306,10.06,95,31,7.02,FI,1612728738
Øksfjord,70.2396,22.3479,26.6,68,75,9.22,NO,1612728738
Susanville,40.4163,-120.653,48.0,42,1,1.25,US,1612728144
Torbay,47.6666,-52.7314,32.0,55,20,24.16,CA,1612728567
Sharan,54.8167,54.0,-4.25,90,100,14.85,RU,1612728739
Les Cayes,18.2,-73.75,81.57,60,0,7.09,HT,1612728739
Nago,26.5881,127.9761,62.6,59,1,3.44,JP,1612728740
Hatta,24.1167,79.6,55.08,40,0,2.01,IN,1612728740
Sakakah,29.9697,40.2064,53.6,66,0,5.75,SA,1612728740
Pisco,-13.7,-76.2167,75.2,78,0,4.61,PE,1612728713
Patti,31.2808,74.8572,57.2,67,0,3.44,IN,1612728741
São Filipe,14.8961,-24.4956,70.39,72,100,12.35,CV,1612728741
Springville,40.1652,-111.6107,48.99,27,40,6.91,US,1612728741
Sept-Îles,50.2001,-66.3821,24.01,58,5,5.75,CA,1612728741
Mazamari,-11.3258,-74.5308,82.44,70,98,1.01,PE,1612728742
Nemuro,43.3236,145.575,13.78,86,0,10.65,JP,1612728742
Waitati,-45.75,170.5667,60.01,89,92,3.0,NZ,1612728742
Noumea,-22.2763,166.4572,78.01,100,0,2.3,NC,1612728743
Magistral'nyy,56.1725,107.4458,19.56,96,100,7.27,RU,1612728743
Hasaki,35.7333,140.8333,32.0,80,20,2.3,JP,1612728743
Severo-Yeniseyskiy,60.3725,93.0408,26.82,95,99,15.99,RU,1612728744
Vao,-22.6667,167.4833,77.02,84,69,0.6,NC,1612728744
Manakara,-22.1333,48.0167,78.8,88,95,9.73,MG,1612728744
Lagoa,39.05,-27.9833,57.79,73,100,20.0,PT,1612728745
Ponta Delgada,37.7333,-25.6667,57.99,88,75,12.66,PT,1612728745
Popondetta,-8.7537,148.2534,74.7,93,100,3.11,PG,1612728745
Parry Sound,45.3501,-80.033,18.0,73,90,8.99,CA,1612728745
Muroto-misakicho,33.2833,134.15,53.64,58,1,15.73,JP,1612728746
Inhambane,-23.865,35.3833,82.4,69,20,8.84,MZ,1612728746
Kieta,-6.2167,155.6333,79.83,77,23,3.65,PG,1612728746
Hofn,64.2539,-15.2082,35.85,92,100,19.06,IS,1612728746
Shihezi,44.3,86.0333,20.23,92,100,3.42,CN,1612728747
Bonfim,3.0833,-59.95,93.6,40,69,6.8,BR,1612728747
Florence,43.7667,11.25,54.0,87,40,8.05,IT,1612728747
Alice Springs,-23.7,133.8833,75.0,35,38,5.75,AU,1612728529
García,25.8167,-100.5833,73.4,38,75,12.66,MX,1612728747
Natitingou,10.3042,1.3796,86.0,15,10,4.61,BJ,1612728748
Rio Grande,-32.035,-52.0986,78.8,61,20,9.22,BR,1612728605
Jatai,-17.8814,-51.7144,78.42,66,30,6.4,BR,1612728748
Garmsār,35.2182,52.3409,52.68,69,100,2.93,IR,1612728748
Camaná,-16.6228,-72.7111,75.33,71,85,7.2,PE,1612728749
Parabel',58.6978,81.4825,9.77,93,100,13.44,RU,1612728749
Yatou,37.15,122.3833,27.3,82,0,12.37,CN,1612728749
Huainan,32.6264,116.9969,41.23,68,100,14.2,CN,1612728749
Sergeevka,53.88,67.4158,6.24,93,66,12.91,KZ,1612728749
Acaraú,-2.8856,-40.12,84.11,69,0,17.72,BR,1612728586
Kailua,21.4022,-157.7394,75.2,46,20,3.44,US,1612728721
Karratha,-20.7377,116.8463,77.95,71,1,8.48,AU,1612728750
Meulaboh,4.1363,96.1285,76.96,86,65,4.56,ID,1612728750
Manokwari,-0.8667,134.0833,78.71,78,100,2.3,ID,1612728751
Katsuura,35.1333,140.3,46.4,46,75,3.44,JP,1612728751
Derzhavīnsk,51.1,66.3167,12.36,96,100,6.44,KZ,1612728751
Comodoro Rivadavia,-45.8667,-67.5,64.4,55,20,21.85,AR,1612728752
Toora-Khem,52.4675,96.11,6.42,92,100,1.77,RU,1612728752
Raja,8.4596,25.678,63.14,28,100,4.05,SS,1612728752
Mehamn,71.0357,27.8492,28.4,74,75,31.07,NO,1612728753
Bariloche,-41.1456,-71.3082,70.0,55,75,12.66,AR,1612728644
Rundu,-17.9333,19.7667,71.11,87,100,5.46,NA,1612728753
Pimenta Bueno,-11.6725,-61.1936,83.03,81,88,3.69,BR,1612728753
Grand Gaube,-20.0064,57.6608,80.01,79,87,1.99,MU,1612728164
Jalu,29.0331,21.5482,67.21,26,96,14.54,LY,1612728754
Guerrero Negro,27.9769,-114.0611,75.79,19,0,5.01,MX,1612728754
Esna,25.2934,32.554,68.0,45,0,2.3,EG,1612728754
Turukhansk,65.8167,87.9833,8.98,95,100,18.54,RU,1612728755
Lompoc,34.6391,-120.4579,66.0,72,1,12.66,US,1612728668
Arrondissement d'Ajaccio,42.0,8.9167,53.6,71,90,14.97,FR,1612728755
Hazorasp,41.3194,61.0742,39.2,81,0,6.91,UZ,1612728755
Marsá Maţrūḩ,31.3525,27.2453,60.8,82,0,9.22,EG,1612728756
Borūjerd,33.8973,48.7516,39.6,77,3,3.0,IR,1612728756
Bāndarban,22.1965,92.2262,55.69,65,0,2.62,BD,1612728756
Grand Forks,47.9417,-97.4337,-9.4,54,75,8.05,US,1612728757
Leh,34.1667,77.5833,13.1,56,0,1.79,IN,1612728757
Nowy Sącz,49.6218,20.6971,23.0,83,100,4.88,PL,1612728757
Pula,44.8683,13.8481,53.6,82,75,5.75,HR,1612728757
Suez,29.9737,32.5263,62.35,51,85,1.52,EG,1612728758
St. George's,12.0564,-61.7485,80.6,74,75,19.57,GD,1612728758
San Quintín,30.4833,-115.95,65.89,51,1,9.84,MX,1612728758
Parakou,9.3372,2.6303,81.93,16,78,4.38,BJ,1612728758
Angren,41.0167,70.1436,46.11,64,100,9.24,UZ,1612728759
Guadalupe y Calvo,26.1,-106.9667,61.27,27,100,10.11,MX,1612728759
Isa Khel,36.6702,68.8443,56.89,47,100,2.46,AF,1612728759
Havre-St-Pierre,50.2334,-63.5986,24.8,63,1,13.8,CA,1612728759
Santa Eulalia,-11.85,-76.6833,79.0,69,75,11.5,PE,1612728760
Nelson Bay,-32.7167,152.15,69.8,78,90,10.36,AU,1612728760
Ciudad del Carmen,18.6333,-91.8333,80.6,74,1,6.91,MX,1612728627
Zeya,53.75,127.2667,-15.07,82,0,3.6,RU,1612728761
Billings Metropolitan Area,45.7833,-108.5007,1.0,71,75,6.91,US,1612728727
Aksu,41.1231,80.2644,29.43,82,98,0.98,CN,1612728762
Kattivākkam,13.2167,80.3167,71.6,88,100,2.3,IN,1612728762
San Cristobal,7.7669,-72.225,86.0,54,40,8.05,VE,1612728743
Keflavik,64.0049,-22.5624,35.6,64,0,16.11,IS,1612728763
Maniitsoq,65.4167,-52.9,26.92,79,0,18.54,GL,1612728763
Srednekolymsk,67.45,153.6833,-8.28,85,100,4.99,RU,1612728763
Quanzhou,24.9139,118.5858,62.6,88,1,2.24,CN,1612728764
Itoman,26.1247,127.6694,62.6,67,20,6.91,JP,1612728764
Savannah Bight,16.45,-85.85,84.2,79,20,9.73,HN,1612728765
Teeli,51.0333,90.2333,2.25,89,91,1.45,RU,1612728765
Pervomayskiy,53.2485,40.2871,6.01,70,92,10.42,RU,1612728765
Itarema,-2.9248,-39.9167,83.89,69,0,15.32,BR,1612728765
Xai-Xai,-25.0519,33.6442,77.92,81,100,6.58,MZ,1612728765
Winneba,5.3511,-0.6231,84.2,79,20,14.97,GH,1612728766
Ondjiva,-17.0667,15.7333,79.18,31,55,3.31,AO,1612728766
Quibdó,5.6947,-76.6611,87.12,73,100,2.95,CO,1612728740
Samarai,-10.6167,150.6667,81.61,77,100,4.79,PG,1612728766
Moose Factory,51.2585,-80.6094,-5.8,59,90,12.66,CA,1612728767
Achinsk,56.2694,90.4993,22.91,93,44,10.36,RU,1612728767
Panama City,8.9936,-79.5197,89.01,62,40,10.36,PA,1612728526
Mae Ramat,16.984,98.5166,67.55,66,3,1.25,TH,1612728767
Treinta y Tres,-33.2333,-54.3833,84.49,46,3,3.0,UY,1612728768
Suntar,62.1444,117.6319,2.91,93,100,7.72,RU,1612728768
Ratne,51.6683,24.5303,14.59,93,100,14.94,UA,1612728768
Makakilo City,21.3469,-158.0858,77.0,41,1,5.75,US,1612728769
Los Andes,-32.8337,-70.5983,80.01,99,0,3.0,CL,1612728770
Adelaide,-34.9333,138.6,57.0,76,0,8.05,AU,1612728770
Marawi,7.9986,124.2928,75.0,96,100,3.0,PH,1612728770
Severnyy-Kospashskiy,59.0925,57.8008,-11.99,75,100,4.0,RU,1612728771
Barcelos,41.5388,-8.6151,53.6,94,90,13.8,PT,1612728563
Old Saybrook,41.2918,-72.3762,33.01,100,90,6.91,US,1612728567
Kirovo-Chepetsk,58.5539,50.0399,-17.21,87,100,9.53,RU,1612728771
Makkah al Mukarramah,21.4267,39.8261,73.35,27,0,8.28,SA,1612728543
İskilip,40.7353,34.4739,49.55,50,99,3.44,TR,1612728772
Bereket,39.2446,55.5154,52.34,50,100,12.84,TM,1612728772
Jinji,23.2281,110.8261,64.78,56,0,2.19,CN,1612728773
Mackay,-21.15,149.2,80.6,89,90,6.91,AU,1612728773
Dédougou,12.4667,-3.4667,85.64,14,9,10.54,BF,1612728773
Seabra,-12.4186,-41.7703,75.74,77,100,2.44,BR,1612728773
Veinticinco de Mayo,-35.4323,-60.1727,93.99,68,2,5.01,AR,1612728773
Tautira,-17.7333,-149.15,86.0,58,20,5.75,PF,1612728774
Sorgun,39.8101,35.186,46.65,55,63,6.46,TR,1612728774
Tomatlán,19.9333,-105.25,85.37,48,0,9.86,MX,1612728774
Genhe,50.7833,121.5167,-20.61,85,0,2.3,CN,1612728774
Le Port,-20.9373,55.2919,77.0,78,90,6.91,RE,1612728775
Marovoay,-16.1,46.6333,78.8,94,40,3.44,MG,1612728775
Curanilahue,-37.4667,-73.35,68.85,63,8,7.05,CL,1612728775
Vestmannaeyjar,63.4427,-20.2734,38.34,75,47,21.63,IS,1612728776
Ixtapa,20.7,-105.2,75.2,64,1,10.36,MX,1612728776
Udachny,66.4167,112.4,-26.05,83,96,5.66,RU,1612728776
Lewiston,44.1003,-70.2148,28.0,86,90,8.05,US,1612728776
Laguna,38.421,-121.4238,62.01,55,1,4.29,US,1612728777
Anito,12.4497,125.2886,78.1,88,100,14.81,PH,1612728777
Santa Maria,-29.6842,-53.8069,86.0,51,20,6.91,BR,1612728777
Pecos,31.4229,-103.4932,77.0,6,1,20.71,US,1612728777
Xinzhou,38.4092,112.7333,26.87,80,0,1.72,CN,1612728779
Paka,4.6374,103.4368,77.0,94,22,4.61,MY,1612728779
Bowen,-20.0167,148.2333,77.0,94,100,4.72,AU,1612728780
Parambu,-6.2111,-40.6944,87.58,42,66,5.88,BR,1612728780
Porto Seguro,-16.4497,-39.0647,80.6,74,75,12.66,BR,1612728781
Teguise,29.0605,-13.564,60.8,72,20,2.3,ES,1612728781
Libreville,0.3925,9.4537,80.6,89,20,4.61,GA,1612728781
Bemidji,47.4736,-94.8803,-11.99,53,40,12.66,US,1612728782
León,21.1167,-101.6667,73.4,28,1,8.23,MX,1612728588
Senno,59.5336,33.9167,3.99,83,100,2.26,RU,1612728783
Muravlenko,63.7898,74.523,14.86,96,100,16.67,RU,1612728783
Gizo Government Station,-8.103,156.8419,82.92,76,55,9.44,SB,1612728783
Manta,-0.95,-80.7333,84.2,70,75,8.05,EC,1612728784
Suoyarvi,62.0833,32.35,3.02,94,97,4.74,RU,1612728784
Aného,6.2333,1.6,84.2,84,20,13.8,TG,1612728784
Ostrovnoy,68.0531,39.5131,7.07,93,100,10.36,RU,1612728784
Ayagoz,47.9714,80.4392,30.85,98,100,11.45,KZ,1612728785
